{"type":"FeatureCollection","features":[{"type":"Feature","properties":{"name":"大東市"},"geometry":{"type":"Point","coordinates":[135.63574897053323,34.712842687904704]}},{"type":"Feature","properties":{"name":"田尻町"},"geometry":{"type":"Point","coordinates":[135.29015039059186,34.392551240080586]}},{"type":"Feature","properties":{"name":"豊中市"},"geometry":{"type":"Point","coordinates":[135.47275860571975,34.78191016073934]}},{"type":"Feature","properties":{"name":"河南町"},"geometry":{"type":"Point","coordinates":[135.64896612104698,34.48455142875298]}},{"type":"Feature","properties":{"name":"大阪狭山市"},"geometry":{"type":"Point","coordinates":[135.54892551611985,34.49645686444991]}},{"type":"Feature","properties":{"name":"阪南市"},"geometry":{"type":"Point","coordinates":[135.2352000798342,34.331167146476176]}},{"type":"Feature","properties":{"name":"河内長野市"},"geometry":{"type":"Point","coordinates":[135.56690994120177,34.40547660810355]}},{"type":"Feature","properties":{"name":"能勢町"},"geometry":{"type":"Point","coordinates":[135.41295468106256,34.98083747719519]}},{"type":"Feature","properties":{"name":"岬町"},"geometry":{"type":"Point","coordinates":[135.15203330657476,34.30320517184801]}},{"type":"Feature","properties":{"name":"岸和田市"},"geometry":{"type":"Point","coordinates":[135.4153150608996,34.42801414134966]}},{"type":"Feature","properties":{"name":"富田林市"},"geometry":{"type":"Point","coordinates":[135.594305710695,34.48882845585767]}},{"type":"Feature","properties":{"name":"門真市"},"geometry":{"type":"Point","coordinates":[135.59934002065185,34.73214946422754]}},{"type":"Feature","properties":{"name":"太子町"},"geometry":{"type":"Point","coordinates":[135.65269300395101,34.51764755906441]}},{"type":"Feature","properties":{"name":"茨木市"},"geometry":{"type":"Point","coordinates":[135.54997038441184,34.85588116822403]}},{"type":"Feature","properties":{"name":"東大阪市"},"geometry":{"type":"Point","coordinates":[135.61759668259444,34.67112442423084]}},{"type":"Feature","properties":{"name":"箕面市"},"geometry":{"type":"Point","coordinates":[135.47925009695342,34.855905379977955]}},{"type":"Feature","properties":{"name":"羽曳野市"},"geometry":{"type":"Point","coordinates":[135.60599851063614,34.54815482732679]}},{"type":"Feature","properties":{"name":"和泉市"},"geometry":{"type":"Point","coordinates":[135.47163564196285,34.43134997822222]}},{"type":"Feature","properties":{"name":"八尾市"},"geometry":{"type":"Point","coordinates":[135.61618832181736,34.620263445485904]}},{"type":"Feature","properties":{"name":"交野市"},"geometry":{"type":"Point","coordinates":[135.6869177936074,34.77215971903684]}},{"type":"Feature","properties":{"name":"寝屋川市"},"geometry":{"type":"Point","coordinates":[135.62695552127255,34.76539688027806]}},{"type":"Feature","properties":{"name":"豊能町"},"geometry":{"type":"Point","coordinates":[135.4822082548796,34.91382958576981]}},{"type":"Feature","properties":{"name":"守口市"},"geometry":{"type":"Point","coordinates":[135.57636987510296,34.74175175091161]}},{"type":"Feature","properties":{"name":"島本町"},"geometry":{"type":"Point","coordinates":[135.65324417710397,34.89887362047952]}},{"type":"Feature","properties":{"name":"千早赤阪村"},"geometry":{"type":"Point","coordinates":[135.64812194079033,34.438436749458866]}},{"type":"Feature","properties":{"name":"泉大津市"},"geometry":{"type":"Point","coordinates":[135.404013405689,34.507501838028084]}},{"type":"Feature","properties":{"name":"枚方市"},"geometry":{"type":"Point","coordinates":[135.68170450568596,34.817629112815176]}},{"type":"Feature","properties":{"name":"松原市"},"geometry":{"type":"Point","coordinates":[135.55117061501863,34.58021326349703]}},{"type":"Feature","properties":{"name":"吹田市"},"geometry":{"type":"Point","coordinates":[135.51907069381392,34.78555412239164]}},{"type":"Feature","properties":{"name":"四條畷市"},"geometry":{"type":"Point","coordinates":[135.6678311673827,34.73242774815407]}},{"type":"Feature","properties":{"name":"泉南市"},"geometry":{"type":"Point","coordinates":[135.29421272704795,34.34889908714472]}},{"type":"Feature","properties":{"name":"摂津市"},"geometry":{"type":"Point","coordinates":[135.56956087045938,34.77600077199078]}},{"type":"Feature","properties":{"name":"泉佐野市"},"geometry":{"type":"Point","coordinates":[135.34186581964988,34.37578439884632]}},{"type":"Feature","properties":{"name":"高石市"},"geometry":{"type":"Point","coordinates":[135.42962557191814,34.528827912726165]}},{"type":"Feature","properties":{"name":"貝塚市"},"geometry":{"type":"Point","coordinates":[135.385090657627,34.40107425773645]}},{"type":"Feature","properties":{"name":"大阪市"},"geometry":{"type":"Point","coordinates":[135.49731996532185,34.669602904540405]}},{"type":"Feature","properties":{"name":"柏原市"},"geometry":{"type":"Point","coordinates":[135.64635774759574,34.57901724442444]}},{"type":"Feature","properties":{"name":"藤井寺市"},"geometry":{"type":"Point","coordinates":[135.60401721739362,34.574146945352105]}},{"type":"Feature","properties":{"name":"忠岡町"},"geometry":{"type":"Point","coordinates":[135.39387291526745,34.49242315556123]}},{"type":"Feature","properties":{"name":"熊取町"},"geometry":{"type":"Point","coordinates":[135.3639787008674,34.38903400396105]}},{"type":"Feature","properties":{"name":"高槻市"},"geometry":{"type":"Point","coordinates":[135.6079142522845,34.88079591894264]}},{"type":"Feature","properties":{"name":"堺市"},"geometry":{"type":"Point","coordinates":[135.4968507025136,34.5310297892217]}},{"type":"Feature","properties":{"name":"池田市"},"geometry":{"type":"Point","coordinates":[135.43825612831856,34.834443890794354]}}]}